creation_date,status,completion_date,service_request_number,type_of_service_request,license_plate,vehicle_make_model,vehicle_color,current_activity,most_recent_action,how_many_days_has_the_vehicle_been_reported_as_parked_,street_address,zip_code,x_coordinate,y_coordinate,ward,police_district,community_area,ssa,latitude,longitude,location
01/02/2011,Completed,01/05/2011,11-00003920,Abandoned Vehicle Complaint,OUT OF STATE,Volvo,White,,,,411 W ROSCOE ST,60657,1172688.02630066,1922714.52007772, .94325586900259,-87.64098039940909,"(41.94325586900259, -87.64098039940909)"
07/23/2014,Completed,07/30/2014,14-01182960,Abandoned Vehicle Complaint,4262,Ford,White,FVI - Outcome,Vehicle was moved from original address requested,-1,555 W SURF ST,60657,,,44,19,6,8,41.934155073209475,-87.6435615899184,"(41.934155073209475, -87.6435615899184)"
01/13/2011,Completed,06/16/2011,11-00062463,Abandoned Vehicle Complaint,,,,,,,518 W HAWTHORNE PL,60657,1172321.45351386,1923195.37091377,44,23,6,8,41.944783024560984,-87.64217678323732,"(41.944783024560984, -87.64217678323732)"
05/13/2014,Completed,05/19/2014,14-00702175,Abandoned Vehicle Complaint,H604994,Toyota,Gray,FVI - Outcome,Vehicle was moved from original address requested,4,568 W SURF ST,60657,,,44,19,6,8,41.93436339853526,-87.64419443729716,"(41.93436339853526, -87.64419443729716)"
01/25/2012,Completed,02/08/2012,12-00110084,Abandoned Vehicle Complaint,UNKNOWN,,Unknown,FVI - Outcome,Return to Owner - Vehicle,95,655 W ROSCOE ST,60657,,,44,23,6,8,41.94355091161839,-87.64659981938865,"(41.94355091161839, -87.64659981938865)"
04/12/2014,Completed,05/22/2014,14-00531357,Abandoned Vehicle Complaint,650ZCZ,Mazda,Black,FVI - Outcome,Need Vehicle Tow Report,365,468 W MELROSE ST,60657,,,44,19,6,8,41.94128174416743,-87.64200571295987,"(41.94128174416743, -87.64200571295987)"
02/16/2011,Completed,02/25/2011,11-00268884,Abandoned Vehicle Complaint,RPL6005,Jeep/Cherokee,Gray,Place 7 Day Sticker,Follow on Activity was created,10,510 W STRATFORD PL,60657,1172252.4519255,1923678.27091578,46,23,6,8,41.946068077445084,-87.6424787987921,"(41.946068077445084, -87.6424787987921)"
